{
  "apprenants": [
    {
      "id": 1,
      "nom": "Bretonniere",
      "prenom": "Harold",
      "ville": "Vigneux de Bretagne",
      "avatar": "/assets/avatar.png",
      "anecdotes": "son talent commercial lui permet de vendre des glaçons à un inuit",
      "coordonnees": {
        "latitude": "47.218637",
        "longitude": "-1.554136"
      }
    },
    {
      "id": 2,
      "nom": "Cazal",
      "prenom": "Charles",
      "ville": "Toulouse",
      "avatar": "assets/avatar.png",
      "anecdotes": " a un gros trou dans l'oreille, mais entend néanmoins très bien",
      "coordonnees": {
        "latitude": "43.604462",
        "longitude": "1.444247"
      }
    },
    {
      "id": 3,
      "nom": "Champigny",
      "prenom": "Jeremy",
      "ville": "Pointe-à-Pitre",
      "avatar": "assets/avatar.png",
      "anecdotes": "en décalage",
      "coordonnees": {
        "latitude": "16.240864",
        "longitude": "-61.533408"
      }
    },
    {
      "id": 4,
      "nom": "Cosco",
      "prenom": "Charlotte",
      "ville": "Vitré",
      "avatar": "assets/avatar.png",
      "anecdotes": "Boit du thé bleu (il paraît)",
      "coordonnees": {
        "latitude": "",
        "longitude": ""
      }
    },
    {
      "id": 5,
      "nom": "Deblock",
      "prenom": "Hélène",
      "ville": "Calais",
      "avatar": "assets/avatar.png",
      "anecdotes": "coud, dès que faire se peut. Et sait conjuguer ce verbe à tous les temps",
      "coordonnees": {
        "latitude": "50.952477",
        "longitude": "1.853845"
      }
    },
    {
      "id": 6,
      "nom": "Dumay",
      "prenom": "Viktoriia",
      "ville": "Kharkiv",
      "avatar": "assets/avatar.png",
      "anecdotes": "motivée, à fond",
      "coordonnees": {
        "latitude": "49.992318",
        "longitude": "36.231015"
      }
    },
    {
      "id": 7,
      "nom": "Engel",
      "prenom": "Adrian",
      "ville": "Aix-en-Provence",
      "avatar": "assets/avatar.png",
      "anecdotes": "ne montre jamais son visage, certains disent que c'est Zorro",
      "coordonnees": {
        "latitude": "43.529842",
        "longitude": "5.447474"
      }
    },
    {
      "id": 8,
      "nom": "Fleury",
      "prenom": "Maxime",
      "ville": "Rennes",
      "avatar": "assets/avatar.png",
      "anecdotes": "n'a jamais pas soif",
      "coordonnees": {
        "latitude": "48.111339",
        "longitude": "-1.68002"
      }
    },
    {
      "id": 9,
      "nom": "Ihadadene",
      "prenom": "Lynda",
      "ville": "Caen",
      "avatar": "assets/avatar.png",
      "anecdotes": "a la sagesse d'écouter deux fois plus qu'elle ne parle, mange sûrement du camembert...",
      "coordonnees": {
        "latitude": "49.18134",
        "longitude": "-0.363561"
      }
    },
    {
      "id": 10,
      "nom": "Logiou",
      "prenom": "Quentin",
      "ville": "",
      "avatar": "assets/avatar.png",
      "anecdotes": "solitaire, à priori",
      "coordonnees": {
        "latitude": "",
        "longitude": ""
      }
    },
    {
      "id": 11,
      "nom": "Loritte",
      "prenom": "Thomas",
      "ville": "Nantes",
      "avatar": "assets/avatar.png",
      "anecdotes": "Jamais de bière sans cacahuètes",
      "coordonnees": {
        "latitude": "47.218637",
        "longitude": "-1.554136"
      }
    },
    {
      "id": 12,
      "nom": "Nicault",
      "prenom": "Jennifer",
      "ville": "Marseille",
      "avatar": "assets/avatar.png",
      "anecdotes": "A toujours des cornichons dans le frigo",
      "coordonnees": {
        "latitude": "43.296174",
        "longitude": "5.369953"
      }
    },
    {
      "id": 13,
      "nom": "Petit",
      "prenom": "Aurélien",
      "ville": "Beauvais",
      "avatar": "assets/avatar.png",
      "anecdotes": "se couche toujours très tôt... le matin",
      "coordonnees": {
        "latitude": "49.4301",
        "longitude": "2.082336"
      }
    },
    {
      "id": 14,
      "nom": "Rey",
      "prenom": "Sébastien",
      "ville": "Saint-Claude",
      "avatar": "assets/avatar.png",
      "anecdotes": "paye ses clopes pas cher, dommage, St-Claude étant plus célèbre pour ses...",
      "coordonnees": {
        "latitude": "46.38747",
        "longitude": "5.864387"
      }
    }
  ],
  "infos": [
    {
      "promo": "2024",
      "formation": "Développeur Web et Web Mobile (D2WA)",
      "dateDebut": "22/12/2023",
      "dateFin": "16/08/2024",
      "description": "Préparation au titre professionnel :<br> <strong>Développeur web et web mobile</strong><br> Reconnu par l'État <strong>Niveau 5</strong> (Niveau Bac +2)<br> Inscrit au RNCP (arrêté du 23/04/2023, J.O du 13/05/2023)<br> Code RNCP : <strong>RNCP37674</strong><br> Certificateur du titre : <strong>Ministère du travail</strong>"
    }
  ]
}
